{
  "features": [
    {
      "type": "Feature",
      "properties": {
        "title": "대포리",
        "description": "A northside park that is home to the Lincoln Park Zoo"
      },
      "geometry": {
        "coordinates": [128.601369844128, 38.16990428978013],
        "type": "Point"
      }
    },
    {
      "type": "Feature",
      "properties": {
        "title": "대산",
        "description": "A lakefront park on Chicago's south side"
      },
      "geometry": {
        "coordinates": [126.35274862595475, 36.99157371454787],
        "type": "Point"
      }
    },
    {
      "type": "Feature",
      "properties": {
        "title": "동해",
        "description": "A downtown park known for its art installations and unique architecture"
      },
      "geometry": {
        "coordinates": [129.07, 37.29],
        "type": "Point"
      }
    },
    {
      "type": "Feature",
      "properties": {
        "title": "광양",
        "description": "A downtown park that is the site of many of Chicago's favorite festivals and events"
      },
      "geometry": {
        "coordinates": [127.42, 34.56],
        "type": "Point"
      }
    },
    {
      "type": "Feature",
      "properties": {
        "title": "Humboldt Park",
        "description": "A large park on Chicago's northwest side"
      },
      "geometry": {
        "coordinates": [-87.70199, 41.905423],
        "type": "Point"
      }
    },
    {
      "type": "Feature",
      "properties": {
        "title": "Douglas Park",
        "description": "A large park near in Chicago's North Lawndale neighborhood"
      },
      "geometry": {
        "coordinates": [-87.699329, 41.860092],
        "type": "Point"
      }
    },
    {
      "type": "Feature",
      "properties": {
        "title": "Calumet Park",
        "description": "A park on the Illinois-Indiana border featuring a historic fieldhouse"
      },
      "geometry": {
        "coordinates": [-87.530221, 41.715515],
        "type": "Point"
      }
    },
    {
      "type": "Feature",
      "properties": {
        "title": "Jackson Park",
        "description": "A lakeside park that was the site of the 1893 World's Fair"
      },
      "geometry": {
        "coordinates": [-87.580389, 41.783185],
        "type": "Point"
      }
    },
    {
      "type": "Feature",
      "properties": {
        "title": "Columbus Park",
        "description": "A large park in Chicago's Austin neighborhood"
      },
      "geometry": {
        "coordinates": [-87.769775, 41.873683],
        "type": "Point"
      }
    }
  ],
  "type": "FeatureCollection"
}
